{
"type": "FeatureCollection",
"name": "singapore_malls",
"crs": { "type": "name", "properties": { "name": "urn:ogc:def:crs:OGC:1.3:CRS84" } },
"features": [
{ "type": "Feature", "properties": { "Mall Name": "100 AM", "Region": "Central" }, "geometry": { "type": "Point", "coordinates": [ 103.8435, 1.2746 ] } },
{ "type": "Feature", "properties": { "Mall Name": "313@Somerset", "Region": "Central" }, "geometry": { "type": "Point", "coordinates": [ 103.8384, 1.301 ] } },
{ "type": "Feature", "properties": { "Mall Name": "Aperia Mall", "Region": "Central" }, "geometry": { "type": "Point", "coordinates": [ 103.8643, 1.3105 ] } },
{ "type": "Feature", "properties": { "Mall Name": "Bugis Junction", "Region": "Central" }, "geometry": { "type": "Point", "coordinates": [ 103.8554, 1.2991 ] } },
{ "type": "Feature", "properties": { "Mall Name": "Bugis+", "Region": "Central" }, "geometry": { "type": "Point", "coordinates": [ 103.8553, 1.301 ] } },
{ "type": "Feature", "properties": { "Mall Name": "City Square Mall", "Region": "Central" }, "geometry": { "type": "Point", "coordinates": [ 103.8567, 1.3115 ] } },
{ "type": "Feature", "properties": { "Mall Name": "Great World", "Region": "Central" }, "geometry": { "type": "Point", "coordinates": [ 103.832, 1.2933 ] } },
{ "type": "Feature", "properties": { "Mall Name": "ION Orchard", "Region": "Central" }, "geometry": { "type": "Point", "coordinates": [ 103.832, 1.3039 ] } },
{ "type": "Feature", "properties": { "Mall Name": "Marina Square", "Region": "Central" }, "geometry": { "type": "Point", "coordinates": [ 103.8572, 1.2912 ] } },
{ "type": "Feature", "properties": { "Mall Name": "Mustafa Centre", "Region": "Central" }, "geometry": { "type": "Point", "coordinates": [ 103.8555, 1.3094 ] } },
{ "type": "Feature", "properties": { "Mall Name": "Ngee Ann City", "Region": "Central" }, "geometry": { "type": "Point", "coordinates": [ 103.8345, 1.3026 ] } },
{ "type": "Feature", "properties": { "Mall Name": "Orchard Central", "Region": "Central" }, "geometry": { "type": "Point", "coordinates": [ 103.8396, 1.3007 ] } },
{ "type": "Feature", "properties": { "Mall Name": "Paragon", "Region": "Central" }, "geometry": { "type": "Point", "coordinates": [ 103.8355, 1.3038 ] } },
{ "type": "Feature", "properties": { "Mall Name": "Plaza Singapura", "Region": "Central" }, "geometry": { "type": "Point", "coordinates": [ 103.8448, 1.3001 ] } },
{ "type": "Feature", "properties": { "Mall Name": "Raffles City", "Region": "Central" }, "geometry": { "type": "Point", "coordinates": [ 103.8534, 1.294 ] } },
{ "type": "Feature", "properties": { "Mall Name": "Suntec City", "Region": "Central" }, "geometry": { "type": "Point", "coordinates": [ 103.8572, 1.2935 ] } },
{ "type": "Feature", "properties": { "Mall Name": "The Shoppes at Marina Bay Sands", "Region": "Central" }, "geometry": { "type": "Point", "coordinates": [ 103.8596, 1.2841 ] } },
{ "type": "Feature", "properties": { "Mall Name": "Tiong Bahru Plaza", "Region": "Central" }, "geometry": { "type": "Point", "coordinates": [ 103.8272, 1.2863 ] } },
{ "type": "Feature", "properties": { "Mall Name": "VivoCity", "Region": "Central" }, "geometry": { "type": "Point", "coordinates": [ 103.8221, 1.2655 ] } },
{ "type": "Feature", "properties": { "Mall Name": "Wisma Atria", "Region": "Central" }, "geometry": { "type": "Point", "coordinates": [ 103.833, 1.3038 ] } },
{ "type": "Feature", "properties": { "Mall Name": "Bedok Mall", "Region": "East" }, "geometry": { "type": "Point", "coordinates": [ 103.9297, 1.3224 ] } },
{ "type": "Feature", "properties": { "Mall Name": "Century Square", "Region": "East" }, "geometry": { "type": "Point", "coordinates": [ 103.9438, 1.3524 ] } },
{ "type": "Feature", "properties": { "Mall Name": "Changi City Point", "Region": "East" }, "geometry": { "type": "Point", "coordinates": [ 103.9619, 1.3337 ] } },
{ "type": "Feature", "properties": { "Mall Name": "Eastpoint Mall", "Region": "East" }, "geometry": { "type": "Point", "coordinates": [ 103.9531, 1.3427 ] } },
{ "type": "Feature", "properties": { "Mall Name": "i12 Katong", "Region": "East" }, "geometry": { "type": "Point", "coordinates": [ 103.9052, 1.3051 ] } },
{ "type": "Feature", "properties": { "Mall Name": "Parkway Parade", "Region": "East" }, "geometry": { "type": "Point", "coordinates": [ 103.9054, 1.3014 ] } },
{ "type": "Feature", "properties": { "Mall Name": "Paya Lebar Square", "Region": "East" }, "geometry": { "type": "Point", "coordinates": [ 103.8925, 1.3188 ] } },
{ "type": "Feature", "properties": { "Mall Name": "PLQ Mall (Paya Lebar Quarter)", "Region": "East" }, "geometry": { "type": "Point", "coordinates": [ 103.8928, 1.3175 ] } },
{ "type": "Feature", "properties": { "Mall Name": "Tampines 1", "Region": "East" }, "geometry": { "type": "Point", "coordinates": [ 103.945, 1.3543 ] } },
{ "type": "Feature", "properties": { "Mall Name": "Tampines Mall", "Region": "East" }, "geometry": { "type": "Point", "coordinates": [ 103.9447, 1.3526 ] } },
{ "type": "Feature", "properties": { "Mall Name": "White Sands", "Region": "East" }, "geometry": { "type": "Point", "coordinates": [ 103.9496, 1.3725 ] } },
{ "type": "Feature", "properties": { "Mall Name": "AMK Hub", "Region": "North" }, "geometry": { "type": "Point", "coordinates": [ 103.8484, 1.3694 ] } },
{ "type": "Feature", "properties": { "Mall Name": "Canberra Plaza", "Region": "North" }, "geometry": { "type": "Point", "coordinates": [ 103.8297, 1.4431 ] } },
{ "type": "Feature", "properties": { "Mall Name": "Causeway Point", "Region": "North" }, "geometry": { "type": "Point", "coordinates": [ 103.7855, 1.4357 ] } },
{ "type": "Feature", "properties": { "Mall Name": "Northpoint City", "Region": "North" }, "geometry": { "type": "Point", "coordinates": [ 103.8361, 1.4296 ] } },
{ "type": "Feature", "properties": { "Mall Name": "Sembawang Shopping Centre", "Region": "North" }, "geometry": { "type": "Point", "coordinates": [ 103.8251, 1.4407 ] } },
{ "type": "Feature", "properties": { "Mall Name": "Sun Plaza", "Region": "North" }, "geometry": { "type": "Point", "coordinates": [ 103.8179, 1.4481 ] } },
{ "type": "Feature", "properties": { "Mall Name": "Compass One", "Region": "North-East" }, "geometry": { "type": "Point", "coordinates": [ 103.8953, 1.3917 ] } },
{ "type": "Feature", "properties": { "Mall Name": "Hougang Mall", "Region": "North-East" }, "geometry": { "type": "Point", "coordinates": [ 103.8938, 1.3725 ] } },
{ "type": "Feature", "properties": { "Mall Name": "Hougang 1", "Region": "North-East" }, "geometry": { "type": "Point", "coordinates": [ 103.8794, 1.3758 ] } },
{ "type": "Feature", "properties": { "Mall Name": "NEX", "Region": "North-East" }, "geometry": { "type": "Point", "coordinates": [ 103.872, 1.3507 ] } },
{ "type": "Feature", "properties": { "Mall Name": "Oasis Terraces", "Region": "North-East" }, "geometry": { "type": "Point", "coordinates": [ 103.9125, 1.4044 ] } },
{ "type": "Feature", "properties": { "Mall Name": "Punggol Plaza", "Region": "North-East" }, "geometry": { "type": "Point", "coordinates": [ 103.9167, 1.3986 ] } },
{ "type": "Feature", "properties": { "Mall Name": "The Seletar Mall", "Region": "North-East" }, "geometry": { "type": "Point", "coordinates": [ 103.8764, 1.3912 ] } },
{ "type": "Feature", "properties": { "Mall Name": "Waterway Point", "Region": "North-East" }, "geometry": { "type": "Point", "coordinates": [ 103.902, 1.3612 ] } },
{ "type": "Feature", "properties": { "Mall Name": "Hillion Mall", "Region": "West" }, "geometry": { "type": "Point", "coordinates": [ 103.763, 1.3785 ] } },
{ "type": "Feature", "properties": { "Mall Name": "IMM", "Region": "West" }, "geometry": { "type": "Point", "coordinates": [ 103.747, 1.3345 ] } },
{ "type": "Feature", "properties": { "Mall Name": "Jem", "Region": "West" }, "geometry": { "type": "Point", "coordinates": [ 103.7434, 1.3333 ] } },
{ "type": "Feature", "properties": { "Mall Name": "Jurong Point", "Region": "West" }, "geometry": { "type": "Point", "coordinates": [ 103.7067, 1.3396 ] } },
{ "type": "Feature", "properties": { "Mall Name": "Lot One", "Region": "West" }, "geometry": { "type": "Point", "coordinates": [ 103.7449, 1.3851 ] } },
{ "type": "Feature", "properties": { "Mall Name": "The Clementi Mall", "Region": "West" }, "geometry": { "type": "Point", "coordinates": [ 103.7643, 1.3149 ] } },
{ "type": "Feature", "properties": { "Mall Name": "The Rail Mall", "Region": "West" }, "geometry": { "type": "Point", "coordinates": [ 103.7674, 1.3621 ] } },
{ "type": "Feature", "properties": { "Mall Name": "The Star Vista", "Region": "West" }, "geometry": { "type": "Point", "coordinates": [ 103.7884, 1.3068 ] } },
{ "type": "Feature", "properties": { "Mall Name": "Westgate", "Region": "West" }, "geometry": { "type": "Point", "coordinates": [ 103.7422, 1.3337 ] } },
{ "type": "Feature", "properties": { "Mall Name": "West Mall", "Region": "West" }, "geometry": { "type": "Point", "coordinates": [ 103.7492, 1.3501 ] } }
]
}
